[
  {"id":"millennium_tower","name":"Millennium Tower","lat":51.0520,"lng":-114.0684,"address":"500 1 Ave SW","type":"residential","amenities":["washroom"]},
  {"id":"sheraton_eau_claire","name":"Sheraton Suites Eau Claire","lat":51.0522,"lng":-114.0672,"address":"255 Barclay Parade SW","type":"hotel","amenities":["food","hotel","washroom"]},
  {"id":"centennial_place","name":"Centennial Place","lat":51.0516,"lng":-114.0694,"address":"250 2 Ave SW","type":"office","amenities":["food","washroom"],"heightM":169,"floors":40,"plus15FloorLevel":2},
  {"id":"eau_claire_tower","name":"Eau Claire Tower","lat":51.0514,"lng":-114.0710,"address":"600 2 Ave SW","type":"office","amenities":["washroom"],"heightM":119,"floors":26,"plus15FloorLevel":2},
  {"id":"400_third_ave","name":"400 Third Avenue SW","lat":51.0514,"lng":-114.0692,"address":"400 3 Ave SW","type":"office","amenities":["food","washroom"]},
  {"id":"calgary_city_centre","name":"Calgary City Centre Tower","lat":51.0514,"lng":-114.0648,"address":"140 2 Ave SE","type":"office","amenities":["food","washroom"]},
  {"id":"livingston_place","name":"Livingston Place","lat":51.0514,"lng":-114.0632,"address":"250 2 St SW","type":"office","amenities":["food","washroom"],"heightM":143,"floors":31,"plus15FloorLevel":2},
  {"id":"eau_claire_place","name":"Eau Claire Place","lat":51.0508,"lng":-114.0698,"address":"521 3 Ave SW","type":"office","amenities":["food","washroom"]},
  {"id":"jamieson_place","name":"Jamieson Place","lat":51.0504,"lng":-114.0650,"address":"308 4 Ave SW","type":"office","amenities":["food","washroom"],"heightM":159,"floors":38,"plus15FloorLevel":2},
  {"id":"240_fourth","name":"240 FOURTH","lat":51.0504,"lng":-114.0638,"address":"240 4 Ave SW","type":"office","amenities":["washroom"]},
  {"id":"altus_centre","name":"Altus Centre","lat":51.0500,"lng":-114.0712,"address":"500 4 Ave SW","type":"office","amenities":["food","washroom"]},
  {"id":"shell_centre","name":"Shell Centre","lat":51.0500,"lng":-114.0696,"address":"400 4 Ave SW","type":"office","amenities":["food","washroom"]},
  {"id":"the_westin","name":"The Westin","lat":51.0500,"lng":-114.0672,"address":"320 4 Ave SW","type":"hotel","amenities":["food","hotel","washroom"]},
  {"id":"calgary_place","name":"Calgary Place","lat":51.0496,"lng":-114.0664,"address":"355 4 Ave SW","type":"office","amenities":["food","retail","washroom"]},
  {"id":"stock_exchange","name":"Stock Exchange Tower","lat":51.0496,"lng":-114.0652,"address":"300 5 Ave SW","type":"office","amenities":["food","washroom"]},
  {"id":"the_international","name":"The International","lat":51.0504,"lng":-114.0622,"address":"120 4 Ave SE","type":"office","amenities":["washroom"]},
  {"id":"the_ampersand","name":"The Ampersand","lat":51.0504,"lng":-114.0600,"address":"4 Ave SE","type":"office","amenities":["washroom"]},
  {"id":"fifth_avenue_place","name":"Fifth Avenue Place","lat":51.0496,"lng":-114.0632,"address":"425 1 St SW","type":"office","amenities":["food","retail","washroom"]},
  {"id":"tc_energy_tower","name":"TC Energy Tower","lat":51.0496,"lng":-114.0610,"address":"450 1 St SW","type":"office","amenities":["food","washroom"],"heightM":192,"floors":40,"plus15FloorLevel":2},
  {"id":"mcdougall_parkade","name":"McDougall Parkade","lat":51.0497,"lng":-114.0744,"address":"6 St SW","type":"parking","amenities":["washroom"]},
  {"id":"selkirk_house","name":"Selkirk House","lat":51.0496,"lng":-114.0718,"address":"440 4 Ave SW","type":"office","amenities":["washroom"]},
  {"id":"london_house","name":"London House","lat":51.0496,"lng":-114.0700,"address":"4 Ave SW","type":"office","amenities":["washroom"]},
  {"id":"fourth_and_fourth","name":"Fourth & Fourth","lat":51.0496,"lng":-114.0686,"address":"4 Ave & 4 St SW","type":"office","amenities":["food","washroom"]},
  {"id":"640_fifth","name":"640 Fifth","lat":51.0492,"lng":-114.0736,"address":"640 5 Ave SW","type":"office","amenities":["washroom"]},
  {"id":"chevron_plaza","name":"Chevron Plaza","lat":51.0492,"lng":-114.0712,"address":"500 5 Ave SW","type":"office","amenities":["food","washroom"]},
  {"id":"aquitaine_tower","name":"Aquitaine Tower","lat":51.0492,"lng":-114.0698,"address":"540 5 Ave SW","type":"office","amenities":["food","washroom"]},
  {"id":"444_building","name":"444 Building","lat":51.0492,"lng":-114.0686,"address":"444 5 Ave SW","type":"office","amenities":["food","washroom"]},
  {"id":"roslyn_building","name":"Roslyn Building","lat":51.0492,"lng":-114.0674,"address":"5 Ave SW","type":"office","amenities":["washroom"]},
  {"id":"metropolitan_centre","name":"Metropolitan Conference Centre","lat":51.0492,"lng":-114.0660,"address":"333 4 Ave SW","type":"convention","amenities":["food","washroom"]},
  {"id":"canada_place","name":"Canada Place","lat":51.0492,"lng":-114.0648,"address":"9707 110 St NW","type":"government","amenities":["washroom"]},
  {"id":"bow_valley_square","name":"Bow Valley Square","lat":51.0488,"lng":-114.0636,"address":"205 5 Ave SW","type":"office","amenities":["food","retail","washroom"]},
  {"id":"suncor_energy_centre","name":"Suncor Energy Centre","lat":51.0488,"lng":-114.0610,"address":"150 6 Ave SW","type":"office","amenities":["food","washroom"],"heightM":215,"floors":53,"plus15FloorLevel":2},
  {"id":"the_bow","name":"The Bow","lat":51.0486,"lng":-114.0578,"address":"500 Centre St S","type":"landmark","amenities":["food","retail","washroom"],"heightM":236,"floors":58,"plus15FloorLevel":2},
  {"id":"639_fifth","name":"639 Fifth Avenue SW","lat":51.0488,"lng":-114.0732,"address":"639 5 Ave SW","type":"office","amenities":["washroom"]},
  {"id":"fifth_and_fifth","name":"Fifth & Fifth Building","lat":51.0488,"lng":-114.0720,"address":"5 Ave & 5 St SW","type":"office","amenities":["food","washroom"]},
  {"id":"shelbourne","name":"Shelbourne Building","lat":51.0488,"lng":-114.0708,"address":"5 Ave SW","type":"office","amenities":["washroom"]},
  {"id":"petex_building","name":"Petex Building","lat":51.0488,"lng":-114.0700,"address":"5 Ave SW","type":"office","amenities":["washroom"]},
  {"id":"courtyard_marriott","name":"Courtyard by Marriott","lat":51.0488,"lng":-114.0690,"address":"5 Ave SW","type":"hotel","amenities":["food","hotel","washroom"]},
  {"id":"505_third","name":"505 Third St","lat":51.0488,"lng":-114.0682,"address":"505 3 St SW","type":"office","amenities":["food","washroom"]},
  {"id":"333_fifth","name":"333 Fifth Avenue SW","lat":51.0488,"lng":-114.0662,"address":"333 5 Ave SW","type":"office","amenities":["food","washroom"]},
  {"id":"715_fifth","name":"715 Fifth","lat":51.0488,"lng":-114.0748,"address":"715 5 Ave SW","type":"office","amenities":["washroom"]},
  {"id":"736_sixth","name":"736 Sixth Avenue","lat":51.0484,"lng":-114.0758,"address":"736 6 Ave SW","type":"office","amenities":["washroom"]},
  {"id":"pacific_parkade","name":"Pacific Parkade","lat":51.0484,"lng":-114.0748,"address":"6 Ave SW","type":"parking","amenities":[]},
  {"id":"700_sixth","name":"700 Sixth Avenue","lat":51.0484,"lng":-114.0738,"address":"700 6 Ave SW","type":"office","amenities":["washroom"]},
  {"id":"five_ten_fifth","name":"Five Ten Fifth","lat":51.0484,"lng":-114.0706,"address":"510 5 Ave SW","type":"office","amenities":["food","washroom"]},
  {"id":"404_sixth","name":"404 Six Avenue SW","lat":51.0484,"lng":-114.0686,"address":"404 6 Ave SW","type":"office","amenities":["food","washroom"]},
  {"id":"centrium_place","name":"Centrium Place","lat":51.0484,"lng":-114.0670,"address":"6 Ave SW","type":"office","amenities":["washroom"]},
  {"id":"brookfield_place","name":"Brookfield Place","lat":51.0480,"lng":-114.0636,"address":"225 6 Ave SW","type":"landmark","amenities":["food","retail","washroom"],"heightM":247,"floors":56,"plus15FloorLevel":2},
  {"id":"the_grand","name":"The Grand","lat":51.0480,"lng":-114.0614,"address":"6 Ave SW","type":"office","amenities":["washroom"]},
  {"id":"amec_place","name":"AMEC Place","lat":51.0480,"lng":-114.0770,"address":"801 6 Ave SW","type":"office","amenities":["washroom"]},
  {"id":"intact_place","name":"Intact Place","lat":51.0480,"lng":-114.0654,"address":"311 6 Ave SW","type":"office","amenities":["food","washroom"]},
  {"id":"bow_parkade","name":"Bow Parkade","lat":51.0478,"lng":-114.0644,"address":"6 Ave SW","type":"parking","amenities":[]},
  {"id":"telus_sky","name":"Telus Sky","lat":51.0478,"lng":-114.0612,"address":"Centre St S","type":"landmark","amenities":["food","washroom"],"heightM":222,"floors":59,"plus15FloorLevel":2},
  {"id":"life_plaza","name":"Life Plaza","lat":51.0476,"lng":-114.0750,"address":"7 St SW","type":"office","amenities":["washroom"]},
  {"id":"john_j_bowlen","name":"John J. Bowlen Building","lat":51.0476,"lng":-114.0734,"address":"620 7 Ave SW","type":"government","amenities":["washroom"]},
  {"id":"calgary_courts","name":"Calgary Court Centre","lat":51.0476,"lng":-114.0718,"address":"601 5 St SW","type":"government","amenities":["washroom"]},
  {"id":"courthouse_park","name":"Courthouse Park","lat":51.0476,"lng":-114.0708,"address":"5 St SW","type":"park","amenities":[]},
  {"id":"barclay_centre","name":"Barclay Centre","lat":51.0474,"lng":-114.0686,"address":"444 7 Ave SW","type":"office","amenities":["food","washroom"]},
  {"id":"first_canadian_centre","name":"First Canadian Centre","lat":51.0474,"lng":-114.0668,"address":"350 7 Ave SW","type":"office","amenities":["food","retail","washroom"],"heightM":167,"floors":40,"plus15FloorLevel":2},
  {"id":"sandman_hotel","name":"Sandman Hotel","lat":51.0474,"lng":-114.0772,"address":"888 7 Ave SW","type":"hotel","amenities":["food","hotel","washroom"]},
  {"id":"667_7st","name":"667 7 St SW","lat":51.0474,"lng":-114.0756,"address":"667 7 St SW","type":"office","amenities":["washroom"]},
  {"id":"801_seventh","name":"801 Seventh Avenue SW","lat":51.0470,"lng":-114.0748,"address":"801 7 Ave SW","type":"office","amenities":["washroom"]},
  {"id":"elveden_centre","name":"Elveden Centre","lat":51.0470,"lng":-114.0732,"address":"717 7 Ave SW","type":"office","amenities":["food","washroom"]},
  {"id":"lincor_place","name":"Lincor Place","lat":51.0470,"lng":-114.0718,"address":"5 St SW","type":"office","amenities":["washroom"]},
  {"id":"manulife_place","name":"Manulife Place","lat":51.0470,"lng":-114.0702,"address":"500 4 St SW","type":"office","amenities":["food","washroom"]},
  {"id":"watermark_tower","name":"Watermark Tower","lat":51.0470,"lng":-114.0692,"address":"530 8 Ave SW","type":"office","amenities":["food","washroom"]},
  {"id":"the_core","name":"The CORE Shopping Centre","lat":51.0468,"lng":-114.0670,"address":"751 3 St SW","type":"retail","amenities":["food","retail","entertainment","washroom","transit"],"heightM":35,"floors":4,"plus15FloorLevel":2},
  {"id":"td_square","name":"TD Square","lat":51.0468,"lng":-114.0650,"address":"317 7 Ave SW","type":"retail","amenities":["food","retail","washroom","transit"]},
  {"id":"hudsons_bay","name":"Hudson's Bay Company","lat":51.0468,"lng":-114.0638,"address":"200 8 Ave SW","type":"retail","amenities":["food","retail","washroom"]},
  {"id":"hyatt_regency","name":"Hyatt Regency Calgary","lat":51.0468,"lng":-114.0600,"address":"700 Centre St S","type":"hotel","amenities":["food","hotel","washroom"],"heightM":74,"floors":21,"plus15FloorLevel":2},
  {"id":"telus_convention_north","name":"TELUS Convention Centre North","lat":51.0468,"lng":-114.0586,"address":"120 9 Ave SE","type":"convention","amenities":["food","washroom"]},
  {"id":"century_gardens","name":"Century Gardens","lat":51.0466,"lng":-114.0750,"address":"8 Ave & 8 St SW","type":"park","amenities":[]},
  {"id":"petro_fina","name":"Petro-Fina Building","lat":51.0466,"lng":-114.0740,"address":"736 8 Ave SW","type":"office","amenities":["washroom"]},
  {"id":"ramada_plaza","name":"Ramada Plaza Downtown","lat":51.0466,"lng":-114.0726,"address":"708 8 Ave SW","type":"hotel","amenities":["food","hotel","washroom"]},
  {"id":"western_union","name":"Western Union Building","lat":51.0466,"lng":-114.0714,"address":"8 Ave SW","type":"office","amenities":["washroom"]},
  {"id":"plains_midstream","name":"Plains Midstream Plaza","lat":51.0466,"lng":-114.0700,"address":"8 Ave SW","type":"office","amenities":["food","washroom"]},
  {"id":"holt_renfrew","name":"Holt Renfrew","lat":51.0466,"lng":-114.0684,"address":"510 8 Ave SW","type":"retail","amenities":["retail","washroom"]},
  {"id":"td_canada_trust","name":"TD Canada Trust Tower","lat":51.0466,"lng":-114.0672,"address":"421 7 Ave SW","type":"office","amenities":["food","washroom"]},
  {"id":"devonian_tower","name":"Devonian & Elicore Tower","lat":51.0466,"lng":-114.0660,"address":"8 Ave SW","type":"office","amenities":["food","washroom"]},
  {"id":"vintl_building","name":"Vintl Building","lat":51.0466,"lng":-114.0648,"address":"8 Ave SW","type":"office","amenities":["washroom"]},
  {"id":"stephen_ave_place","name":"Stephen Avenue Place","lat":51.0466,"lng":-114.0636,"address":"225 8 Ave SW","type":"office","amenities":["food","retail","washroom"]},
  {"id":"palace_theatre","name":"The Palace Theatre","lat":51.0464,"lng":-114.0618,"address":"8 Ave SW","type":"entertainment","amenities":["entertainment"]},
  {"id":"olympic_plaza","name":"Olympic Plaza","lat":51.0466,"lng":-114.0590,"address":"228 8 Ave SE","type":"park","amenities":["washroom"]},
  {"id":"western_canadian_place","name":"Western Canadian Place","lat":51.0462,"lng":-114.0730,"address":"707 5 St SW","type":"office","amenities":["food","washroom"]},
  {"id":"first_alberta_place","name":"First Alberta Place","lat":51.0462,"lng":-114.0742,"address":"777 8 Ave SW","type":"office","amenities":["washroom"]},
  {"id":"centennial_parkade","name":"Centennial Parkade","lat":51.0458,"lng":-114.0702,"address":"9 Ave SW","type":"parking","amenities":[]},
  {"id":"eighth_avenue_place","name":"Eighth Avenue Place","lat":51.0458,"lng":-114.0690,"address":"525 8 Ave SW","type":"office","amenities":["food","retail","washroom"],"heightM":215,"floors":49,"plus15FloorLevel":2},
  {"id":"bankers_hall_west","name":"Bankers Hall West Parkade","lat":51.0458,"lng":-114.0680,"address":"9 Ave SW","type":"parking","amenities":[]},
  {"id":"hsbc_building","name":"HSBC Bank Building","lat":51.0458,"lng":-114.0670,"address":"335 8 Ave SW","type":"office","amenities":["food","washroom"]},
  {"id":"royal_bank","name":"Royal Bank Building","lat":51.0458,"lng":-114.0660,"address":"335 8 Ave SW","type":"office","amenities":["washroom"]},
  {"id":"bankers_hall","name":"Bankers Hall","lat":51.0458,"lng":-114.0648,"address":"315 8 Ave SW","type":"office","amenities":["food","retail","washroom","health"],"heightM":197,"floors":52,"plus15FloorLevel":2},
  {"id":"bankers_court","name":"Bankers Court","lat":51.0458,"lng":-114.0636,"address":"315 8 Ave SW","type":"office","amenities":["food","washroom"]},
  {"id":"the_edison","name":"The Edison","lat":51.0458,"lng":-114.0616,"address":"150 9 Ave SW","type":"residential","amenities":["washroom"]},
  {"id":"calgary_tower","name":"Calgary Tower","lat":51.0454,"lng":-114.0604,"address":"101 9 Ave SW","type":"landmark","amenities":["food","retail","washroom","entertainment"],"heightM":191,"floors":3,"plus15FloorLevel":2},
  {"id":"glenbow_museum","name":"Glenbow Museum","lat":51.0458,"lng":-114.0588,"address":"130 9 Ave SE","type":"entertainment","amenities":["entertainment","washroom"]},
  {"id":"telus_convention_south","name":"TELUS Convention Centre South","lat":51.0460,"lng":-114.0580,"address":"120 9 Ave SE","type":"convention","amenities":["food","washroom"]},
  {"id":"gulf_canada_square","name":"Gulf Canada Square","lat":51.0452,"lng":-114.0668,"address":"401 9 Ave SW","type":"office","amenities":["food","washroom"]},
  {"id":"penn_west_plaza","name":"Penn West Plaza","lat":51.0452,"lng":-114.0644,"address":"9 Ave SW","type":"office","amenities":["washroom"]},
  {"id":"palliser_hotel","name":"Fairmont Palliser Hotel","lat":51.0452,"lng":-114.0620,"address":"133 9 Ave SW","type":"hotel","amenities":["food","hotel","washroom"]},
  {"id":"tower_centre","name":"Tower Centre","lat":51.0450,"lng":-114.0608,"address":"9 Ave SW","type":"office","amenities":["washroom"]},
  {"id":"palliser_square","name":"Palliser Square One","lat":51.0450,"lng":-114.0592,"address":"125 9 Ave SE","type":"office","amenities":["food","washroom"]},
  {"id":"harry_hays","name":"Harry Hays Building","lat":51.0504,"lng":-114.0566,"address":"220 4 Ave SE","type":"government","amenities":["washroom"]},
  {"id":"dragon_city_mall","name":"Dragon City Mall","lat":51.0500,"lng":-114.0574,"address":"328 Centre St S","type":"retail","amenities":["food","retail","washroom"]},
  {"id":"arts_commons","name":"Arts Commons","lat":51.0458,"lng":-114.0578,"address":"205 8 Ave SE","type":"entertainment","amenities":["entertainment","washroom"]},
  {"id":"hanover_building","name":"Hanover Building","lat":51.0480,"lng":-114.0592,"address":"6 Ave SE","type":"office","amenities":["washroom"]},
  {"id":"andrew_davison","name":"Andrew Davison Building","lat":51.0480,"lng":-114.0580,"address":"6 Ave SE","type":"office","amenities":["washroom"]},
  {"id":"city_hall","name":"City Hall","lat":51.0468,"lng":-114.0574,"address":"800 Macleod Trail SE","type":"government","amenities":["washroom"],"heightM":42,"floors":12,"plus15FloorLevel":2}
]
